[
	{
		"evaNumber": "8002549",
		"name": "Hamburg Hbf",
		"availableTransports": [
			"CITY_TRAIN",
			"REGIONAL_TRAIN",
			"BUS",
			"INTER_REGIONAL_TRAIN",
			"HIGH_SPEED_TRAIN",
			"INTERCITY_TRAIN"
		],
		"position": { "longitude": 10.006909, "latitude": 53.552736 },
		"identifier": {
			"ifopt": "de:02000:10950",
			"ril100": "AH",
			"stationId": "2514"
		}
	},
	{
		"evaNumber": "8071065",
		"name": "Hamburg Hbf (Kirchenallee)",
		"availableTransports": ["BUS"],
		"position": { "longitude": 10.008533, "latitude": 53.553199 },
		"identifier": { "ril100": "AH  K" }
	},
	{
		"evaNumber": "8071066",
		"name": "Hamburg Hbf (Spitalerstraße)",
		"availableTransports": ["BUS"],
		"position": { "longitude": 10.005472, "latitude": 53.552559 },
		"identifier": { "ril100": "AH  S" }
	},
	{
		"evaNumber": "0694889",
		"name": "HBF/Steintorwall, Hamburg",
		"availableTransports": ["BUS"],
		"position": { "longitude": 10.005777, "latitude": 53.55129 },
		"identifier": { "ifopt": "de:02000:10001" }
	},
	{
		"evaNumber": "0694840",
		"name": "HBF/Kirchenallee, Hamburg",
		"availableTransports": ["BUS"],
		"position": { "longitude": 10.008533, "latitude": 53.553199 },
		"identifier": { "ifopt": "de:02000:10051" }
	},
	{
		"evaNumber": "0694821",
		"name": "HBF/Mönckebergstraße, Hamburg",
		"availableTransports": ["BUS"],
		"position": { "longitude": 10.004186, "latitude": 53.551576 },
		"identifier": { "ifopt": "de:02000:11001" }
	},
	{
		"evaNumber": "0694879",
		"name": "HBF/Spitalerstraße, Hamburg",
		"availableTransports": ["BUS"],
		"position": { "longitude": 10.005472, "latitude": 53.55255 },
		"identifier": { "ifopt": "de:02000:10011" }
	},
	{
		"evaNumber": "0895667",
		"name": "HBF/Steintordamm, Hamburg",
		"availableTransports": ["BUS"],
		"position": { "longitude": 10.007752, "latitude": 53.551926 },
		"identifier": { "ifopt": "de:02000:10092" }
	},
	{
		"evaNumber": "8076116",
		"name": "Hamburg Hbf ZOB",
		"availableTransports": [],
		"position": { "longitude": 10.0114417, "latitude": 53.5517183 },
		"identifier": { "ril100": "AH  Z" }
	}
]
